{"type":"FeatureCollection","features":[{"type":"Feature","id":1,"geometry":{"type":"Point","coordinates":[3.021720000000073,11.948510000000056]},"properties":{"OBJECTID":1,"NOMS":"Mare 1","Y":11.948510000000001,"X":3.0217200000000002,"Regime":" ","nom":"Mare 1","CoordX":502365,"CoordY":1320860}},{"type":"Feature","id":2,"geometry":{"type":"Point","coordinates":[2.6724300000000198,11.893710000000056]},"properties":{"OBJECTID":2,"NOMS":"Bangoutchir","Y":11.89371,"X":2.6724299999999999,"Regime":" ","nom":"Bangoutchiré","CoordX":464327,"CoordY":1314821}},{"type":"Feature","id":3,"geometry":{"type":"Point","coordinates":[2.3168400000000702,11.680040000000076]},"properties":{"OBJECTID":3,"NOMS":"Koudou","Y":11.68004,"X":2.31684,"Regime":" ","nom":"Koudou","CoordX":425544,"CoordY":1291263}},{"type":"Feature","id":4,"geometry":{"type":"Point","coordinates":[2.8027800000000411,12.055780000000027]},"properties":{"OBJECTID":4,"NOMS":"Komb‚b‚ri","Y":12.05578,"X":2.8027799999999998,"Regime":" ","nom":"Komb‚b‚ri","CoordX":478535,"CoordY":1332729}},{"type":"Feature","id":5,"geometry":{"type":"Point","coordinates":[2.8633900000000381,12.060310000000072]},"properties":{"OBJECTID":5,"NOMS":"K\u02C6ss\u02C6guind‚","Y":12.060309999999999,"X":2.8633899999999999,"Regime":" ","nom":"K\u02C6ss\u02C6guind‚","CoordX":485132,"CoordY":1333226}},{"type":"Feature","id":6,"geometry":{"type":"Point","coordinates":[2.6512500000000614,11.970860000000073]},"properties":{"OBJECTID":6,"NOMS":"Bango-Ha‹fo","Y":11.97086,"X":2.6512500000000001,"Regime":" ","nom":"Bango-Ha‹fo","CoordX":462031,"CoordY":1323355}},{"type":"Feature","id":7,"geometry":{"type":"Point","coordinates":[2.6041200000000231,11.84722000000005]},"properties":{"OBJECTID":7,"NOMS":"Siobaga","Y":11.84722,"X":2.60412,"Regime":" ","nom":"Siobaga","CoordX":456880,"CoordY":1309690}},{"type":"Feature","id":8,"geometry":{"type":"Point","coordinates":[2.5668600000000197,11.909800000000075]},"properties":{"OBJECTID":8,"NOMS":"Tatabouba","Y":11.909800000000001,"X":2.5668600000000001,"Regime":" ","nom":"Tatabouba","CoordX":452833,"CoordY":1316616}},{"type":"Feature","id":9,"geometry":{"type":"Point","coordinates":[2.731200000000058,11.716200000000072]},"properties":{"OBJECTID":9,"NOMS":"Barabo","Y":11.716200000000001,"X":2.7311999999999999,"Regime":" ","nom":"Barabon","CoordX":470708,"CoordY":1295186}},{"type":"Feature","id":10,"geometry":{"type":"Point","coordinates":[2.4096000000000686,11.901400000000024]},"properties":{"OBJECTID":10,"NOMS":"Mare","Y":11.901400000000001,"X":2.4096000000000002,"Regime":" ","nom":"Mare","CoordX":435705,"CoordY":1315719}},{"type":"Feature","id":11,"geometry":{"type":"Point","coordinates":[2.9304000000000201,11.896300000000053]},"properties":{"OBJECTID":11,"NOMS":"Mare 25","Y":11.8963,"X":2.9304000000000001,"Regime":" ","nom":"Mare 25","CoordX":492421,"CoordY":1315088}},{"type":"Feature","id":12,"geometry":{"type":"Point","coordinates":[2.3765000000000214,11.816900000000032]},"properties":{"OBJECTID":12,"NOMS":"Sapingou","Y":11.8169,"X":2.3765000000000001,"Regime":" ","nom":"Sapingou","CoordX":432080,"CoordY":1306383}},{"type":"Feature","id":13,"geometry":{"type":"Point","coordinates":[2.2146000000000754,11.521000000000072]},"properties":{"OBJECTID":13,"NOMS":"Barboti","Y":11.521000000000001,"X":2.2145999999999999,"Regime":" ","nom":"Barboti","CoordX":414352,"CoordY":1273705}},{"type":"Feature","id":14,"geometry":{"type":"Point","coordinates":[2.25750000000005,11.586500000000058]},"properties":{"OBJECTID":14,"NOMS":"Mare","Y":11.586499999999999,"X":2.2574999999999998,"Regime":" ","nom":"Mare","CoordX":419049,"CoordY":1280936}},{"type":"Feature","id":15,"geometry":{"type":"Point","coordinates":[2.5837500000000659,12.241360000000043]},"properties":{"OBJECTID":15,"NOMS":"Toudou","Y":12.24136,"X":2.5837500000000002,"Regime":" ","nom":"Toudou","CoordX":454728,"CoordY":1353278}},{"type":"Feature","id":16,"geometry":{"type":"Point","coordinates":[2.6930800000000659,12.203830000000039]},"properties":{"OBJECTID":16,"NOMS":"Intarissabl","Y":12.20383,"X":2.6930800000000001,"Regime":" ","nom":"Intarissabl","CoordX":466614,"CoordY":1349112}},{"type":"Feature","id":17,"geometry":{"type":"Point","coordinates":[2.7172800000000734,12.198580000000049]},"properties":{"OBJECTID":17,"NOMS":"Mare","Y":12.19858,"X":2.7172800000000001,"Regime":" ","nom":"Mare","CoordX":469246,"CoordY":1348528}},{"type":"Feature","id":18,"geometry":{"type":"Point","coordinates":[2.9383300000000645,11.887920000000065]},"properties":{"OBJECTID":18,"NOMS":"Bossa‹bando","Y":11.887919999999999,"X":2.9383300000000001,"Regime":" ","nom":"Bossaî Bangou","CoordX":493284,"CoordY":1314161}},{"type":"Feature","id":19,"geometry":{"type":"Point","coordinates":[2.6191515590000449,12.297976837000022]},"properties":{"OBJECTID":19,"NOMS":" ","Y":1359533,"X":458587,"Regime":" ","nom":" ","CoordX":458587,"CoordY":1359533}},{"type":"Feature","id":20,"geometry":{"type":"Point","coordinates":[2.7300000190000446,12.10533300000003]},"properties":{"OBJECTID":20,"NOMS":" ","Y":12.105333,"X":2.73,"Regime":" ","nom":" ","CoordX":470619,"CoordY":1338216}},{"type":"Feature","id":21,"geometry":{"type":"Point","coordinates":[2.530842491000044,11.923186630000032]},"properties":{"OBJECTID":21,"NOMS":"Site039","Y":0,"X":0,"Regime":" ","nom":" ","CoordX":448913,"CoordY":1318103}},{"type":"Feature","id":22,"geometry":{"type":"Point","coordinates":[2.4774229910000258,11.913778185000069]},"properties":{"OBJECTID":22,"NOMS":"Site008","Y":0,"X":0,"Regime":" ","nom":" ","CoordX":443094,"CoordY":1317073}},{"type":"Feature","id":23,"geometry":{"type":"Point","coordinates":[2.4728146530000572,11.874857134000024]},"properties":{"OBJECTID":23,"NOMS":"NB3","Y":0,"X":0,"Regime":" ","nom":" ","CoordX":442584,"CoordY":1312770}},{"type":"Feature","id":24,"geometry":{"type":"Point","coordinates":[2.4600576670000578,11.806611769000028]},"properties":{"OBJECTID":24,"NOMS":"CM1","Y":0,"X":0,"Regime":" ","nom":" ","CoordX":441180,"CoordY":1305226}},{"type":"Feature","id":25,"geometry":{"type":"Point","coordinates":[2.5301586220000445,11.823864159000038]},"properties":{"OBJECTID":25,"NOMS":"CM2","Y":0,"X":0,"Regime":" ","nom":" ","CoordX":448820,"CoordY":1307120}},{"type":"Feature","id":26,"geometry":{"type":"Point","coordinates":[2.5921820930000763,11.784404651000045]},"properties":{"OBJECTID":26,"NOMS":"CM4","Y":0,"X":0,"Regime":" ","nom":" ","CoordX":455570,"CoordY":1302746}},{"type":"Feature","id":27,"geometry":{"type":"Point","coordinates":[2.5343706690000545,11.743060621000041]},"properties":{"OBJECTID":27,"NOMS":"CM3","Y":0,"X":0,"Regime":" ","nom":" ","CoordX":449264,"CoordY":1298184}},{"type":"Feature","id":28,"geometry":{"type":"Point","coordinates":[2.4597791930000312,11.742395761000068]},"properties":{"OBJECTID":28,"NOMS":"NB2","Y":0,"X":0,"Regime":" ","nom":" ","CoordX":441136,"CoordY":1298125}},{"type":"Feature","id":29,"geometry":{"type":"Point","coordinates":[2.3980627350000532,11.725542670000038]},"properties":{"OBJECTID":29,"NOMS":"NB1","Y":0,"X":0,"Regime":" ","nom":" ","CoordX":434407,"CoordY":1296275}}]}