{"type":"FeatureCollection","features":[{"type":"Feature","id":1,"geometry":{"type":"Point","coordinates":[2.013888889000043,12.317222222000055]},"properties":{"OBJECTID":1,"Nom":"Mare aux lions","Nature":"Barrage (Digue)","Comporteme":"Intermittente","X":392775,"Y":1361829}},{"type":"Feature","id":2,"geometry":{"type":"Point","coordinates":[2.2041666670000382,11.988611111000068]},"properties":{"OBJECTID":2,"Nom":"Soanda","Nature":"Barrage (Digue)","Comporteme":"Pérenne","X":413360,"Y":1325419}},{"type":"Feature","id":3,"geometry":{"type":"Point","coordinates":[2.1533333330000346,11.97194444400003]},"properties":{"OBJECTID":3,"Nom":"Gnifangou","Nature":"Barrage (Digue)","Comporteme":"Pérenne","X":407820,"Y":1323593}},{"type":"Feature","id":4,"geometry":{"type":"Point","coordinates":[2.3083333330000642,11.961944444000039]},"properties":{"OBJECTID":4,"Nom":"Tamalé","Nature":"Naturelle","Comporteme":"Pérenne","X":424694,"Y":1322440}},{"type":"Feature","id":5,"geometry":{"type":"Point","coordinates":[2.0933333330000323,11.643055556000036]},"properties":{"OBJECTID":5,"Nom":"Sourloumbou","Nature":"Naturelle","Comporteme":"Intermittente","X":401169,"Y":1287242}},{"type":"Feature","id":6,"geometry":{"type":"Point","coordinates":[2.3027293520000285,11.870555145000026]},"properties":{"OBJECTID":6,"Nom":"PK 57","Nature":"Bouli, forage à alimentation solaire","Comporteme":"Pérenne mais actuellement en panne","X":424058,"Y":1312335}},{"type":"Feature","id":7,"geometry":{"type":"Point","coordinates":[2.2494523970000273,11.836481261000074]},"properties":{"OBJECTID":7,"Nom":"PK 49","Nature":"Bouli, forage à alimentation solaire","Comporteme":"Pérenne mais actuellement en panne","X":418245,"Y":1308582}},{"type":"Feature","id":8,"geometry":{"type":"Point","coordinates":[2.1634854370000198,11.835625781000033]},"properties":{"OBJECTID":8,"Nom":"PK 36","Nature":"Bouli, forage à alimentation solaire","Comporteme":"Pérenne mais actuellement en panne","X":408880,"Y":1308514}},{"type":"Feature","id":9,"geometry":{"type":"Point","coordinates":[2.1158750770000552,11.882610766000028]},"properties":{"OBJECTID":9,"Nom":"PK 27","Nature":"Bouli, forage à alimentation solaire","Comporteme":"Pérenne mais actuellement en panne","X":403710,"Y":1313726}},{"type":"Feature","id":10,"geometry":{"type":"Point","coordinates":[2.3150666070000625,11.742085479000025]},"properties":{"OBJECTID":10,"Nom":"Mare Boni","Nature":"Naturelle","Comporteme":"Pérenne","X":425367,"Y":1298125}},{"type":"Feature","id":11,"geometry":{"type":"Point","coordinates":[2.0451412910000499,11.713442181000062]},"properties":{"OBJECTID":11,"Nom":"Garfano","Nature":"Bouli, forage à alimentation solaire","Comporteme":"Pérenne","X":395942,"Y":1295043}},{"type":"Feature","id":12,"geometry":{"type":"Point","coordinates":[2.2571455890000607,12.022082153000042]},"properties":{"OBJECTID":12,"Nom":"Cabane des élephants","Nature":"Source (Digue)","Comporteme":"Intermittente","X":419138,"Y":1329105}},{"type":"Feature","id":13,"geometry":{"type":"Point","coordinates":[2.0671763810000243,11.947685587000024]},"properties":{"OBJECTID":13,"Nom":"Nouveau bouli 1","Nature":"Bouli","Comporteme":" ","X":398430,"Y":1320940}},{"type":"Feature","id":14,"geometry":{"type":"Point","coordinates":[2.2112132240000619,11.902009243000066]},"properties":{"OBJECTID":14,"Nom":"Mare Centrale","Nature":"Mare naturelle","Comporteme":"Intermittente","X":414100,"Y":1315840}},{"type":"Feature","id":15,"geometry":{"type":"Point","coordinates":[2.2698260450000589,11.924864398000068]},"properties":{"OBJECTID":15,"Nom":"Nouveau bouli 2","Nature":"Bouli","Comporteme":" ","X":420490,"Y":1318350}},{"type":"Feature","id":16,"geometry":{"type":"Point","coordinates":[2.3341788880000536,11.933126336000043]},"properties":{"OBJECTID":16,"Nom":"Nouveau bouli 3","Nature":"Bouli","Comporteme":" ","X":427500,"Y":1319246}},{"type":"Feature","id":17,"geometry":{"type":"Point","coordinates":[2.2382245170000488,11.796916342000031]},"properties":{"OBJECTID":17,"Nom":"Nouveau bouli 4","Nature":"Bouli","Comporteme":" ","X":417010,"Y":1304210}}]}